City_name,Cloudiness,Country,Date,Humidity,Latitude,Longitude,Max_temperature,Wind_speed
Ponta Delgada,20,PT,1602991595,72,37.73,-25.67,60.8,8.05
Lesosibirsk,100,RU,1602991596,77,58.24,92.48,45.59,12.12
Atuona,1,PF,1602991597,76,-9.8,-139.03,78.3,14.07
Avarua,94,CK,1602991598,69,-21.21,-159.78,77.0,14.99
Port Alfred,100,ZA,1602991599,87,-33.59,26.89,62.26,16.42
Cape Town,40,ZA,1602991366,93,-33.93,18.42,55.99,2.24
Saint George,1,US,1602991315,14,37.1,-113.58,69.8,4.7
Niamey,95,NE,1602991602,69,13.51,2.11,82.4,9.17
Ushuaia,90,AR,1602991604,86,-54.8,-68.3,41.0,11.41
Bima,71,ID,1602991605,44,-8.47,118.72,92.64,2.53
Punta Arenas,87,CL,1602991606,93,-53.15,-70.92,41.0,10.29
Slănic-Moldova,50,RO,1602991607,66,46.2,26.43,50.0,11.41
Lampa,0,CL,1602991608,76,-33.28,-70.9,64.99,4.7
Port Macquarie,90,AU,1602991609,83,-31.43,152.92,69.8,5.82
Sīra,64,IN,1602991610,75,13.75,76.91,75.6,4.63
Bredasdorp,100,ZA,1602991611,93,-34.53,20.04,51.8,1.12
Kaitangata,94,NZ,1602991612,70,-46.28,169.85,53.01,1.99
Gravdal,92,NO,1602991613,65,68.12,13.5,42.51,23.0
Okha,46,RU,1602991615,58,53.57,142.95,45.57,8.75
Bambous Virieux,75,MU,1602991616,83,-20.34,57.76,77.0,2.24
Thompson,90,CA,1602991617,100,55.74,-97.86,28.4,3.36
Russell,1,US,1602991618,72,32.35,-85.2,59.0,6.82
Mossamedes,53,AO,1602991619,72,-15.2,12.15,68.99,5.95
Mataura,72,NZ,1602991620,64,-46.19,168.86,54.0,7.0
Inhambane,31,MZ,1602991621,81,-23.86,35.38,68.18,7.34
Albany,1,US,1602991622,86,42.6,-73.97,41.0,4.7
Hilo,90,US,1602991623,61,19.73,-155.09,82.4,13.87
Qaanaaq,100,GL,1602991624,84,77.48,-69.36,35.69,8.46
Constitución,0,CL,1602991626,78,-35.33,-72.42,50.43,7.76
Cidreira,87,BR,1602991627,81,-30.18,-50.21,66.94,23.35
Mahabalipuram,90,IN,1602991628,88,12.63,80.17,78.8,4.7
Nemuro,20,JP,1602991629,39,43.32,145.57,62.6,12.75
Kapaa,75,US,1602991426,88,22.08,-159.32,77.0,6.93
Dikson,1,RU,1602991558,93,73.51,80.55,17.53,24.0
Saint Paul Harbor,90,US,1602991632,70,57.79,-152.41,44.6,3.36
Bengkulu,95,ID,1602991633,79,-3.8,102.27,78.98,2.55
Carahue,40,CL,1602991634,100,-38.7,-73.17,46.4,3.58
Matara,96,LK,1602991635,72,5.95,80.54,82.74,13.24
Puerto Ayora,91,EC,1602991636,86,-0.74,-90.35,71.01,4.0
Vaini,75,TO,1602991637,88,-21.2,-175.2,75.2,19.46
Katsuura,75,JP,1602991639,63,35.13,140.3,66.99,10.29
Bafoulabé,55,ML,1602991640,54,13.81,-10.83,78.28,1.32
Fairbanks,40,US,1602991426,53,64.84,-147.72,24.01,3.49
Tiksi,100,RU,1602991642,95,71.69,128.87,19.4,12.41
Beringovskiy,100,RU,1602991643,77,63.05,179.32,36.95,5.91
Upernavik,100,GL,1602991644,96,72.79,-56.15,35.31,13.73
Bluff,56,NZ,1602991645,64,-46.6,168.33,54.0,7.0
Kahului,40,US,1602991646,55,20.89,-156.47,89.6,12.75
Mar del Plata,0,AR,1602991361,88,-38.0,-57.56,64.4,8.05
Empangeni,1,ZA,1602991648,94,-28.76,31.89,65.53,4.41
Bonavista,100,CA,1602991649,85,48.65,-53.11,46.99,11.99
Hanna,0,CA,1602991650,80,51.63,-111.9,19.0,5.99
Isangel,75,VU,1602991651,78,-19.55,169.27,80.6,11.41
Labuhan,83,ID,1602991652,52,-6.88,112.21,88.05,2.93
Souillac,75,MU,1602991654,83,-20.52,57.52,71.6,2.24
Mehamn,88,NO,1602991655,78,71.04,27.85,36.75,11.63
Tilichiki,0,RU,1602991656,76,60.47,166.1,36.01,2.3
Hamilton,1,US,1602991454,49,39.18,-84.53,52.0,3.36
Torbay,90,CA,1602991658,100,47.67,-52.73,48.0,13.87
New Norfolk,98,AU,1602991659,65,-42.78,147.06,63.0,5.01
Busselton,0,AU,1602991660,32,-33.65,115.33,78.01,5.57
Yangi Marg`ilon,0,UZ,1602991661,47,40.43,71.72,57.2,4.7
Imeni Poliny Osipenko,87,RU,1602991662,60,52.42,136.49,37.85,21.88
Chingirlau,99,KZ,1602991663,76,51.09,54.08,37.54,8.66
Naze,75,JP,1602991664,83,28.37,129.48,78.8,13.87
Adrar,0,MR,1602991665,25,20.5,-10.07,84.04,9.01
George Town,20,MY,1602991376,83,5.41,100.34,84.2,5.82
Chokurdakh,100,RU,1602991667,98,70.63,147.92,23.56,6.69
Nikolskoye,75,RU,1602991668,90,59.7,30.79,37.0,6.71
Hayden,75,US,1602991621,57,47.77,-116.79,48.2,6.93
Bud,1,US,1602991670,43,39.45,-86.18,52.0,9.17
Khatanga,34,RU,1602991672,91,71.97,102.5,6.64,8.55
Sittwe,99,MM,1602991673,80,20.15,92.9,82.9,7.4
Butaritari,26,KI,1602991674,77,3.07,172.79,82.45,20.07
Hirara,75,JP,1602991675,74,24.8,125.28,84.2,18.34
Rikitea,100,PF,1602991388,80,-23.12,-134.97,74.32,18.86
Sai Buri,20,TH,1602991677,74,6.7,101.62,82.4,5.82
Chui,77,UY,1602991678,88,-33.7,-53.46,59.9,6.26
Vao,0,NC,1602991679,61,-22.67,167.48,71.96,9.64
Qaqortoq,66,GL,1602991680,80,60.72,-46.03,35.6,2.64
Sur,0,OM,1602991681,41,22.57,59.53,82.24,16.87
Eureka,1,US,1602991628,86,40.8,-124.16,57.99,2.44
Nantucket,1,US,1602991683,50,41.28,-70.1,55.0,4.7
Portland,75,US,1602991637,77,45.52,-122.68,59.0,1.95
Lorengau,5,PG,1602991685,66,-2.02,147.27,85.6,9.82
Harper,65,LR,1602991686,90,4.38,-7.72,76.57,5.84
Ambovombe,41,MG,1602991688,86,-25.17,46.08,65.75,16.42
Kawalu,67,ID,1602991689,72,-7.38,108.21,79.34,4.47
Mount Isa,0,AU,1602991690,19,-20.73,139.5,96.8,9.17
Isil'kul',0,RU,1602991691,88,54.91,71.27,33.15,16.04
Salamiyah,0,SY,1602991692,78,35.01,37.05,55.51,1.45
Haines Junction,0,CA,1602991693,76,60.75,-137.51,21.11,0.81
Auki,37,SB,1602991694,65,-8.77,160.7,86.18,2.17
Saint-Pierre,2,RE,1602991695,56,-21.34,55.48,73.99,5.82
Esperance,7,AU,1602991696,49,-33.87,121.9,68.0,10.29
Tuatapere,95,NZ,1602991697,64,-46.13,167.68,54.0,7.0
Half Moon Bay,0,US,1602991411,48,37.46,-122.43,73.4,2.57
Mandalgovi,0,MN,1602991692,52,45.76,106.27,42.8,11.5
Clyde River,90,CA,1602991700,88,70.47,-68.59,35.6,17.22
Cherskiy,31,RU,1602991701,93,68.75,161.3,24.6,14.9
Tromsø,75,NO,1602991702,80,69.65,18.96,35.6,18.34
Ribeira Grande,19,PT,1602991704,59,38.52,-28.7,62.56,12.3
São Filipe,28,CV,1602991705,80,14.9,-24.5,79.7,1.41
Hofn,100,IS,1602991706,81,64.25,-15.21,40.19,5.57
Baillif,58,GP,1602991707,94,16.02,-61.75,75.2,2.24
Provideniya,43,RU,1602991708,87,64.38,-173.3,36.81,1.9
Faanui,82,PF,1602991709,73,-16.48,-151.75,80.13,3.94
Arlit,0,NE,1602991710,14,18.74,7.39,86.47,5.19
Merauke,5,ID,1602991711,66,-8.47,140.33,84.18,15.32
Jamestown,1,US,1602991593,48,42.1,-79.24,44.01,8.05
Tasiilaq,4,GL,1602991713,39,65.61,-37.64,46.4,25.28
Sungai Penuh,65,ID,1602991714,59,-2.08,101.38,78.13,4.52
Salalah,0,OM,1602991715,49,17.02,54.09,71.6,4.7
Nanortalik,66,GL,1602991716,83,60.14,-45.24,39.16,3.96
Itaguaí,51,BR,1602991717,68,-22.85,-43.78,71.6,8.05
East London,100,ZA,1602991718,83,-33.02,27.91,64.67,13.53
Yinchuan,68,CN,1602991719,35,38.47,106.27,55.58,2.26
Hermanus,59,ZA,1602991720,95,-34.42,19.23,53.01,1.01
Qeshm,0,IR,1602991721,14,26.96,56.27,69.8,11.41
Mocuba,93,MZ,1602991722,75,-16.84,36.99,69.31,0.38
Vilhena,67,BR,1602991724,63,-12.74,-60.15,75.04,1.19
Ancud,75,CL,1602991725,93,-41.87,-73.82,48.99,9.17
Saldanha,34,ZA,1602991726,81,-33.01,17.94,53.6,3.36
Saint-Philippe,37,RE,1602991727,56,-21.36,55.77,73.99,5.82
Asău,46,RO,1602991728,81,46.43,26.4,45.0,5.75
Port Elizabeth,75,ZA,1602991729,87,-33.92,25.57,60.8,17.22
Laguna,1,US,1602991463,43,38.42,-121.42,75.99,2.93
Castro,30,BR,1602991523,96,-24.79,-50.01,49.68,7.4
Prabumulih,90,ID,1602991732,88,-3.45,104.25,79.25,2.35
Kruisfontein,100,ZA,1602991733,95,-34.0,24.73,55.99,1.01
Lebu,20,CL,1602991734,94,-37.62,-73.65,50.11,5.03
São Félix do Xingu,71,BR,1602991735,77,-6.64,-51.99,74.08,0.6
Chik,40,RU,1602991736,64,54.99,82.43,39.2,20.13
Husavik,75,IS,1602991737,65,66.04,-17.34,46.4,17.22
Camacha,40,PT,1602991738,68,33.08,-16.33,69.8,18.34
Havelock,5,US,1602991723,62,34.88,-76.9,55.99,11.41
Vilyuysk,0,RU,1602991740,90,63.76,121.62,16.9,4.16
Manggar,52,ID,1602991741,67,-2.88,108.27,85.64,12.66
Carnarvon,90,AU,1602991742,69,-24.87,113.63,75.2,16.11
Sinnamary,47,GF,1602991744,82,5.38,-52.95,80.6,10.6
Natal,20,BR,1602991668,83,-5.79,-35.21,73.4,3.36
San Andrés,90,CO,1602991746,83,12.58,-81.7,84.2,6.93
Severo-Kuril'sk,17,RU,1602991747,61,50.68,156.12,48.96,13.73
General Pico,0,AR,1602991748,57,-35.66,-63.76,76.69,14.85
Bathsheba,40,BB,1602991749,88,13.22,-59.52,77.0,14.99
Camapuã,97,BR,1602991750,52,-19.53,-54.04,79.11,7.49
Nālūt,100,LY,1602991751,83,30.33,10.85,59.09,16.89
São João da Barra,38,BR,1602991752,84,-21.64,-41.05,69.78,8.86
Norman Wells,5,CA,1602991454,66,65.28,-126.83,12.2,4.7
Savannah Bight,44,HN,1602991754,72,16.45,-85.85,84.0,8.79
Alice Springs,32,AU,1602991755,42,-23.7,133.88,82.4,11.41
Bitung,40,ID,1602991756,70,1.45,125.18,86.0,9.17
Hobart,75,AU,1602991725,51,-42.88,147.33,63.0,5.82
Tuktoyaktuk,5,CA,1602991758,85,69.45,-133.04,15.8,8.05
Cabo San Lucas,3,MX,1602991759,84,22.89,-109.91,82.99,1.01
Ruidoso,1,US,1602991575,21,33.33,-105.67,62.6,8.05
Nyimba,44,ZM,1602991761,45,-14.56,30.81,69.13,2.01
Marabu,20,MY,1602991762,66,4.41,114.01,89.6,9.17
Antalaha,13,MG,1602991764,86,-14.9,50.28,70.36,6.42
Dunedin,77,NZ,1602991765,70,-45.87,170.5,53.01,1.99
Coolum Beach,67,AU,1602991766,70,-26.53,153.1,79.0,8.99
Meulaboh,78,ID,1602991767,63,4.14,96.13,84.78,3.0
Caravelas,63,BR,1602991768,80,-17.71,-39.25,72.28,7.43
Ashland,1,US,1602991769,40,40.82,-82.27,51.8,10.29
Gbarnga,78,LR,1602991770,98,7.0,-9.47,70.57,1.01
Hasaki,75,JP,1602991771,63,35.73,140.83,66.2,9.17
Colombo,75,LK,1602991772,79,6.93,79.85,84.2,5.82
Codrington,93,AU,1602991773,68,-38.27,141.97,54.48,8.12
Mahébourg,75,MU,1602991774,83,-20.41,57.7,71.6,2.24
Lienz,55,AT,1602991775,96,46.83,12.77,39.0,4.61
Sitka,75,US,1602991770,45,57.05,-135.33,44.6,13.87
Hithadhoo,100,MV,1602991777,77,-0.6,73.08,83.12,20.94
Nome,90,US,1602991585,93,64.5,-165.41,35.6,23.04
Cururupu,16,BR,1602991779,91,-1.83,-44.87,74.25,2.84
Kaeo,21,NZ,1602991780,61,-35.1,173.78,64.15,10.29
Bay City,90,US,1602991781,37,43.59,-83.89,54.0,10.29
Solnechnyy,68,RU,1602991782,65,50.72,136.63,37.51,15.77
Arroyo de la Encomienda,62,ES,1602991784,61,41.61,-4.8,41.0,6.93
Paamiut,73,GL,1602991785,86,61.99,-49.67,39.96,9.17
Omsukchan,64,RU,1602991786,77,62.53,155.8,28.85,7.9
Timrå,63,SE,1602991787,100,62.49,17.33,36.0,8.7
Aquiraz,40,BR,1602991724,78,-3.9,-38.39,80.6,13.87
Sovetskoye,100,RU,1602991789,47,52.29,85.41,51.91,8.55
Richards Bay,2,ZA,1602991790,90,-28.78,32.04,68.04,8.25
Bethel,1,US,1602991791,93,41.37,-73.41,42.01,0.36
Barrow,1,US,1602991792,73,71.29,-156.79,19.4,12.75
Sangar,100,RU,1602991793,93,63.92,127.47,20.21,6.64
Kantemirovka,100,RU,1602991794,81,49.71,39.86,57.69,9.69
Saskylakh,99,RU,1602991795,96,71.92,114.08,16.05,4.45
Verkhnyaya Inta,81,RU,1602991796,97,65.98,60.31,27.81,14.74
Englewood,40,US,1602991705,26,39.65,-104.99,57.99,11.41
Trincomalee,88,LK,1602991798,71,8.57,81.23,83.61,16.71
São Francisco do Sul,63,BR,1602991799,92,-26.24,-48.64,63.0,2.37
Byron Bay,41,AU,1602991801,54,-28.65,153.62,88.0,17.22
Fortuna,1,US,1602991802,87,40.6,-124.16,55.99,6.93
Hokitika,92,NZ,1602991804,89,-42.72,170.97,55.6,5.26
Fes,0,MA,1602991805,71,34.04,-5.0,50.0,6.93
Letlhakane,0,BW,1602991807,47,-21.42,25.58,69.69,7.27
Thinadhoo,62,MV,1602991808,77,0.53,72.93,83.34,21.43
Charters Towers,0,AU,1602991809,19,-20.1,146.27,89.26,4.52
Santa Maria,100,BR,1602991706,63,-29.68,-53.81,64.18,4.54
Longyearbyen,75,SJ,1602991811,73,78.22,15.64,26.6,8.05
Corsicana,90,US,1602991812,78,32.1,-96.47,73.4,14.99
Kushiro,20,JP,1602991814,54,42.98,144.37,59.0,12.75
San Cristobal,82,VE,1602991517,87,7.77,-72.22,66.06,3.4
Padang,90,ID,1602991816,59,-0.95,100.35,85.87,4.14
Sawākin,16,SD,1602991817,75,19.11,37.33,81.66,8.43
Tartagal,15,AR,1602991818,58,-22.52,-63.8,75.81,3.51
Khakhea,5,BW,1602991820,30,-24.69,23.49,73.9,10.63
Airai,65,TL,1602991821,37,-8.93,125.41,82.38,3.15
Juneau,75,US,1602991822,59,58.3,-134.42,36.0,6.6
Ponca City,1,US,1602991824,63,36.71,-97.09,64.4,13.87
Awjilah,0,LY,1602991825,24,29.11,21.29,77.34,12.64
Beloha,7,MG,1602991826,73,-25.17,45.05,68.5,16.69
Tongren,100,CN,1602991827,75,27.72,109.19,57.6,1.34
Shimoda,75,JP,1602991828,72,34.67,138.95,64.4,17.22
Soe,4,ID,1602991829,30,-9.86,124.28,90.88,7.11
Srednekolymsk,90,RU,1602991831,97,67.45,153.68,26.15,10.92
Yulara,89,AU,1602991832,30,-25.24,130.99,86.0,13.87
Canchungo,2,GW,1602991833,94,12.07,-16.03,78.8,2.24
Arraial do Cabo,31,BR,1602991587,83,-22.97,-42.03,70.11,14.61
Tigil',100,RU,1602991835,78,57.8,158.67,39.02,12.73
Suntar,0,RU,1602991836,88,62.14,117.63,26.82,1.48
Ulaangom,64,MN,1602991837,57,49.98,92.07,43.79,4.59
Krasnogvardeyskiy,6,RU,1602991839,91,57.38,62.32,33.1,10.71
Tuy Hoa,99,VN,1602991840,79,13.08,109.3,82.62,2.42
Dillon,1,US,1602991841,76,34.42,-79.37,50.0,4.7
Ostrovnoy,2,RU,1602991842,85,68.05,39.51,33.39,6.91
Sola,75,VU,1602991843,70,-13.88,167.55,84.2,6.93
Chipinge,4,ZW,1602991844,72,-20.19,32.62,61.84,1.99
Altay,33,CN,1602991846,44,47.87,88.12,48.97,3.2
Olovyannaya,76,RU,1602991847,56,50.95,115.57,45.25,13.35
Vardø,80,NO,1602991848,70,70.37,31.11,39.47,13.87
Muros,100,ES,1602991849,93,42.78,-9.06,57.0,3.0
Vikulovo,91,RU,1602991850,87,56.82,70.61,33.67,18.84
Palmer,20,US,1602991653,93,42.16,-72.33,39.99,1.61
Buala,91,SB,1602991852,73,-8.14,159.59,84.33,6.13
Fonte Boa,50,BR,1602991853,95,-2.5,-66.27,73.8,2.42
Moose Factory,75,CA,1602991854,80,51.26,-80.61,33.8,5.82
Poum,22,NC,1602991855,74,-20.23,164.02,73.78,7.38
Ponta do Sol,40,PT,1602991857,68,32.67,-17.1,69.8,14.99
Ilebo,94,CD,1602991858,96,-4.32,20.58,70.41,1.1
Lebyazh'ye,0,RU,1602991701,94,55.27,66.49,31.68,13.02
Colac,100,AU,1602991860,84,-38.33,143.58,54.0,6.51
Gobabis,0,NA,1602991861,28,-22.45,18.97,64.04,13.82
Otane,68,NZ,1602991862,66,-39.88,176.63,63.0,5.01
Calabozo,76,VE,1602991863,93,8.92,-67.43,74.28,2.73
Rawson,50,AR,1602991865,36,-43.3,-65.1,63.79,22.75
College,40,US,1602991866,53,64.86,-147.8,24.01,3.33
Arrondissement de Cholet,65,FR,1602991867,92,47.17,-1.0,41.0,5.88
Lagoa,46,PT,1602991868,59,39.05,-27.98,61.59,12.41
Calama,0,CL,1602991869,12,-22.47,-68.93,50.0,12.75
Klaksvík,97,FO,1602991870,93,62.23,-6.59,35.6,1.12
Talnakh,80,RU,1602991871,79,69.49,88.4,28.4,13.42
Pedernales,65,DO,1602991873,68,18.04,-71.74,81.36,5.3
Lavrentiya,100,RU,1602991874,89,65.58,-171.0,36.77,2.42
Koumac,53,NC,1602991875,73,-20.57,164.28,73.76,7.43
Touros,20,BR,1602991876,83,-5.2,-35.46,73.4,3.36
Irondequoit,75,US,1602991877,93,43.21,-77.58,46.99,8.93
Zhalantun,93,CN,1602991878,51,48.0,122.72,45.45,9.6
Cayenne,20,GF,1602991808,100,4.93,-52.33,77.0,1.12
Xining,13,CN,1602991880,53,36.62,101.77,43.27,2.13
Ketchikan,90,US,1602991881,81,55.34,-131.65,48.2,5.82
Mandera,74,KE,1602991882,67,3.94,41.87,78.28,9.19
Simpang Empat,20,MY,1602991884,74,4.95,100.63,86.0,3.22
Heihe,0,CN,1602991885,25,50.24,127.49,39.2,13.42
Dinguiraye,10,GN,1602991886,83,11.3,-10.72,72.34,2.95
Lengshuijiang,98,CN,1602991683,79,27.69,111.43,58.93,2.93
Mairi,8,BR,1602991888,91,-11.71,-40.15,66.78,5.1
Nipawin,1,CA,1602991889,79,53.37,-104.0,24.8,13.87
Nichinan,75,JP,1602991890,60,31.6,131.37,69.8,13.87
Tagusao,41,PH,1602991891,68,9.19,117.81,84.54,7.0
Mimongo,100,GA,1602991892,95,-1.62,11.61,70.65,1.12
Abhā,0,SA,1602991893,34,18.22,42.51,51.8,7.85
Taoudenni,0,ML,1602991894,22,22.68,-3.98,79.02,6.31
Forsytheganj,100,BY,1602991896,92,52.63,29.73,40.32,12.33
Keningau,20,MY,1602991765,62,5.34,116.16,89.6,5.82
San Jose,20,US,1602991826,36,37.34,-121.89,75.99,5.82
Batemans Bay,17,AU,1602991899,80,-35.72,150.18,63.0,4.0
Mvuma,0,ZW,1602991900,61,-19.28,30.53,60.89,1.95
Willmar,1,US,1602991901,74,45.12,-95.04,35.6,12.75
Hammerfest,97,NO,1602991902,100,70.66,23.68,28.4,6.93
Ca Mau,100,VN,1602991750,85,9.18,105.15,81.0,7.2
Belmonte,75,BR,1602991904,88,-15.86,-38.88,69.8,5.82
Katangli,89,RU,1602991905,72,51.71,143.23,47.17,10.65
Ilulissat,100,GL,1602991906,86,69.22,-51.1,37.4,6.93
Hīt,0,IQ,1602991908,31,33.64,42.83,70.77,5.91
Pangody,100,RU,1602991909,94,65.85,74.49,24.87,21.88
Soeng Sang,75,TH,1602991910,100,14.43,102.46,69.8,6.93
Caucayá,98,CO,1602991911,96,-0.19,-74.78,72.3,1.14
Lokosovo,100,RU,1602991912,97,61.13,74.82,28.36,24.43
Dingle,57,PH,1602991913,73,11.0,122.67,86.52,8.48
Yellowknife,75,CA,1602991914,92,62.46,-114.35,25.0,10.29
Bandarbeyla,0,SO,1602991915,71,9.49,50.81,81.19,10.89
Aden,0,YE,1602991916,68,12.78,45.04,83.79,10.92
Coari,90,BR,1602991727,86,-4.08,-63.14,76.64,1.66
Sembakung,100,ID,1602991918,71,3.82,117.25,84.49,1.99
Farafangana,97,MG,1602991919,78,-22.82,47.83,70.21,7.65
Conakry,78,GN,1602991920,82,9.54,-13.68,80.11,6.76
Oranjemund,0,NA,1602991921,92,-28.55,16.43,56.55,8.55
Devonport,15,AU,1602991846,60,-41.17,146.35,61.0,11.99
Ikryanoye,75,RU,1602991924,82,46.09,47.73,59.0,8.95
Itarema,98,BR,1602991925,78,-2.92,-39.92,79.03,15.61
Balkanabat,0,TM,1602991926,22,39.51,54.37,68.59,10.67
Araouane,0,ML,1602991927,18,18.9,-3.53,86.36,11.56
Diamantina,99,BR,1602991928,97,-18.25,-43.6,58.98,7.07
São Sebastião,96,BR,1602991929,81,-23.76,-45.41,67.59,7.16
Korla,99,CN,1602991930,44,41.76,86.15,55.0,4.0
Pangnirtung,99,CA,1602991931,91,66.15,-65.71,26.56,6.31
Grindavik,75,IS,1602991932,93,63.84,-22.43,42.8,24.16
Torata,0,PE,1602991933,49,-17.08,-70.84,56.01,1.41
Vrangel',0,RU,1602991934,47,42.73,133.08,58.24,13.24
Tessalit,0,ML,1602991935,20,20.2,1.01,78.84,9.48
Yaan,22,NG,1602991936,91,7.38,8.57,69.6,3.15
Kunming,90,CN,1602991803,100,25.04,102.72,57.0,8.95
Emerald,1,AU,1602991792,22,-23.53,148.17,86.0,9.17
Naryan-Mar,16,RU,1602991939,97,67.67,53.09,28.99,5.06
Zhangye,0,CN,1602991941,30,38.93,100.45,56.88,9.17
Praia da Vitória,20,PT,1602991942,72,38.73,-27.07,59.0,9.75
Alamosa,1,US,1602991943,22,37.47,-105.87,55.4,5.82
Uyemskiy,90,RU,1602991944,100,64.47,40.85,37.4,4.47
Bundaberg,40,AU,1602991945,47,-24.85,152.35,81.0,14.99
Nuuk,100,GL,1602991946,87,64.18,-51.72,42.8,3.36
Luanda,75,AO,1602991947,78,-8.84,13.23,77.0,8.05
Griffith,90,US,1602991727,35,41.53,-87.42,59.0,17.22
Hong Kong,31,HK,1602991949,64,22.29,114.16,80.01,4.0
Mil'kovo,99,RU,1602991950,61,54.72,158.62,43.48,10.54
Westport,1,US,1602991805,75,41.14,-73.36,46.4,4.7
Acapulco de Juárez,14,MX,1602991811,82,16.86,-99.89,80.38,7.45
Aitape,100,PG,1602991953,82,-3.14,142.35,80.15,6.46
Coquimbo,0,CL,1602991948,100,-29.95,-71.34,51.8,5.82
Karratha,1,AU,1602991756,37,-20.74,116.85,81.99,16.53
Darnah,49,LY,1602991956,83,32.77,22.64,74.01,8.34
Chimbote,14,PE,1602991958,89,-9.09,-78.58,61.39,5.03
Kisangani,100,CD,1602991959,98,0.52,25.2,69.51,2.42
Ambilobe,0,MG,1602991960,62,-13.2,49.05,75.96,3.6
Teguise,99,ES,1602991961,77,29.06,-13.56,64.4,3.36
Bama,0,NG,1602991962,53,11.52,13.69,78.44,6.11
Mattru,94,SL,1602991963,98,7.62,-11.83,73.44,1.05
Beibei,90,CN,1602991964,87,29.83,106.43,60.01,4.47
Arman',100,RU,1602991965,93,59.7,150.17,33.55,4.9
Diamantino,13,BR,1602991966,61,-14.41,-56.45,78.17,1.9
Uvalde,1,US,1602991967,73,29.37,-99.77,72.0,8.05
Harar,0,ET,1602991968,80,9.31,42.13,60.39,1.12
Erzin,4,TR,1602991969,87,36.96,36.2,71.01,1.01
San Quintín,0,MX,1602991970,83,30.48,-115.95,68.92,8.41
Xam Nua,100,LA,1602991971,87,20.42,104.04,60.49,3.0
Kibala,88,TD,1602991972,83,9.11,18.35,75.2,3.33
Ouadda,99,CF,1602991974,87,8.08,22.4,66.9,1.48
Primo Tapia,5,MX,1602991975,77,32.22,-116.92,71.01,3.36
Vaitape,59,PF,1602991976,72,-16.52,-151.75,81.05,4.07
Umluj,0,SA,1602991977,40,25.02,37.27,83.34,8.39
Karoi,0,ZW,1602991978,45,-16.81,29.69,61.27,4.63
Meadow Lake,1,US,1602991979,15,34.8,-106.54,66.99,5.39
Rock Springs,1,US,1602991980,37,41.59,-109.2,50.0,16.11
El Alto,88,PE,1602991981,86,-4.27,-81.21,64.18,12.73
Pitimbu,20,BR,1602991982,88,-7.47,-34.81,73.4,5.82
Rondonópolis,3,BR,1602991983,64,-16.47,-54.64,76.12,1.52
Aklavik,20,CA,1602991984,72,68.22,-135.01,14.0,5.82
Catherinas Lust,60,GY,1602991985,80,6.4,-57.6,80.19,10.11
Yar-Sale,100,RU,1602991986,96,66.83,70.83,22.06,13.42
San Patricio,1,US,1602991987,88,28.02,-97.52,77.0,11.41
Pevek,100,RU,1602991988,98,69.7,170.31,29.5,13.35
Waddān,16,LY,1602991989,89,29.16,16.14,67.21,7.52
Doka,0,SD,1602991991,61,13.52,35.77,72.32,3.38
Atar,16,MR,1602991992,30,20.52,-13.05,85.3,6.91
Nola,17,IT,1602991993,87,40.92,14.53,57.0,2.24
Evensk,100,RU,1602991994,81,61.95,159.23,36.43,13.53
Nāgar Karnūl,91,IN,1602991995,74,16.48,78.32,79.03,4.79
Kyra,82,RU,1602991996,54,49.58,111.98,45.48,6.76
Praia,20,CV,1602991991,88,14.92,-23.51,77.0,5.82
Pacific Grove,1,US,1602991986,72,36.62,-121.92,64.99,3.36
Castle Rock,91,US,1602991999,31,39.37,-104.86,55.0,3.0
The Valley,40,AI,1602992000,83,18.22,-63.06,80.6,6.93
Duluth,90,US,1602991948,74,46.78,-92.11,37.4,11.41
Tres Arroyos,0,AR,1602992002,81,-38.37,-60.28,70.16,16.87
Geraldton,0,AU,1602992003,32,-28.77,114.6,80.6,14.99
Gazojak,0,TM,1602992004,28,41.19,61.4,61.34,5.97
Rassvet,76,RU,1602992005,63,46.83,40.75,57.11,5.21
Murgab,0,TM,1602992006,61,37.5,61.97,48.2,4.21
Linfen,87,CN,1602992008,26,36.09,111.52,65.01,1.1
Tabou,54,CI,1602992009,91,4.42,-7.35,76.12,5.93
Mitsamiouli,6,KM,1602992010,74,-11.38,43.28,79.02,3.11
Kutum,54,SD,1602992011,22,14.2,24.67,72.25,8.72
Zhigansk,100,RU,1602992012,94,66.77,123.37,13.84,6.76
Flin Flon,100,CA,1602992013,97,54.77,-101.86,26.74,10.27
Bassano,0,CA,1602992014,78,50.78,-112.47,21.0,7.31
Bubaque,13,GW,1602992016,86,11.28,-15.83,81.73,11.56
Teya,100,RU,1602992017,86,60.38,92.63,42.06,12.53
Te Anau,92,NZ,1602991999,63,-45.42,167.72,57.04,4.05
Leningradskiy,0,RU,1602992019,88,69.38,178.42,23.29,7.7
Sept-Îles,90,CA,1602992020,93,50.2,-66.38,44.6,17.22
Kontagora,0,NG,1602992021,91,10.4,5.47,72.72,2.93
Pishin,0,PK,1602992022,23,30.58,67.0,59.63,0.29
Oga,2,IT,1602992023,100,46.46,10.35,37.4,2.24
Prince Rupert,90,CA,1602992025,93,54.32,-130.32,42.8,5.82
Kalispell,90,US,1602992026,68,48.2,-114.31,30.99,24.16
Campoverde,26,PE,1602992012,75,-8.48,-74.81,75.52,1.54
Gizo Government Station,100,SB,1602992028,81,-8.1,156.84,79.2,4.41
Aksu,0,CN,1602992029,31,41.12,80.26,59.0,2.66
Anchorage,75,US,1602992030,47,61.22,-149.9,37.99,3.36
Vila Velha,75,BR,1602992031,94,-20.33,-40.29,68.0,4.7
Guangzhou,40,CN,1602991917,50,23.12,113.25,77.0,13.42
Iqaluit,90,CA,1602992033,74,63.75,-68.51,33.8,2.24
Khani,0,GE,1602992034,93,41.96,42.96,48.2,2.24
Borovoy,75,RU,1602992035,71,55.43,86.08,50.0,22.37
Miraflores,20,MX,1602992036,55,19.22,-98.81,64.4,8.05
Imbituba,20,BR,1602992038,93,-28.24,-48.67,64.4,1.12
Płock,90,PL,1602992039,93,52.55,19.71,41.0,10.29
Bácum,10,MX,1602992040,84,27.55,-110.08,80.94,2.71
Pahrump,0,US,1602992041,18,36.21,-115.98,66.99,1.99
Scottsbluff,90,US,1602992042,74,41.87,-103.67,35.6,8.05
Ixtapa,5,MX,1602992043,83,20.7,-105.2,84.2,3.36
Turukhansk,100,RU,1602992044,98,65.82,87.98,30.54,18.37
Aswān,0,EG,1602992045,30,24.09,32.91,76.19,6.91
Howard Springs,75,AU,1602992046,62,-12.5,131.05,87.8,10.29
Gradiste,2,RS,1602992047,92,44.76,21.51,39.0,1.7
Maksatikha,100,RU,1602992048,97,57.8,35.88,32.77,6.04
Qui Nhon,100,VN,1602992049,80,13.77,109.23,81.01,2.01
Kalabo,0,ZM,1602992049,27,-14.97,22.68,67.19,5.32
Muzhi,94,RU,1602992052,95,65.37,64.67,26.26,13.02
Šiauliai,58,LT,1602992053,81,55.93,23.32,35.6,9.17
Châteaudun,90,FR,1602992054,100,48.08,1.33,37.4,1.12
Mabaruma,85,GY,1602991969,89,8.2,-59.78,76.42,3.47
Daru,30,PG,1602992056,73,-9.08,143.21,82.26,15.21
Green River,1,US,1602992057,37,41.53,-109.47,50.0,16.11
Faya,0,SA,1602992058,34,18.39,42.45,51.8,4.99
Maumere,64,ID,1602992059,65,-8.62,122.21,85.48,1.57
Mangit,0,UZ,1602992060,54,40.6,70.96,55.4,2.24
Rio Branco do Sul,76,BR,1602992007,77,-25.19,-49.31,59.0,3.83
Puerto Palomas,1,MX,1602992062,20,31.77,-107.62,68.0,6.93
San Luis,0,AR,1602992064,36,-33.3,-66.34,76.68,12.73
Brigantine,1,US,1602992065,93,39.41,-74.36,54.0,1.48
Lompoc,1,US,1602991777,93,34.64,-120.46,64.0,3.36
Moosomin,75,CA,1602992067,86,50.13,-101.67,22.15,10.83
Yichang,100,CN,1602991881,60,30.71,111.28,62.01,0.81
Praia,20,CV,1602991991,88,14.92,-23.51,77.0,5.82
Nikol'sk,99,RU,1602992070,63,53.72,46.07,42.96,20.42
Zima,100,RU,1602992071,59,53.92,102.04,45.23,6.06
Çermik,0,TR,1602992072,45,38.14,39.45,46.4,6.93
Lincoln,20,US,1602991788,61,40.8,-96.67,46.4,13.87
Singaraja,47,ID,1602992074,55,-8.11,115.09,87.03,3.09
Noumea,20,NC,1602992075,47,-22.28,166.46,80.6,13.87
‘Āhuimanu,40,US,1602992076,83,21.44,-157.84,82.4,4.7
Narodychi,100,UA,1602992077,84,51.2,29.08,42.57,12.39
Mikhaylovka,98,RU,1602992078,75,50.06,43.24,53.01,8.01
La Asuncion,4,VE,1602992079,88,11.03,-63.86,82.4,10.29
Caernarfon,85,GB,1602992081,93,53.14,-4.27,43.0,4.7
Kibi,100,GH,1602992082,100,6.16,-0.55,70.79,1.57
Were Īlu,14,ET,1602992083,84,10.6,39.43,48.79,4.7
Jinchang,0,CN,1602992084,34,38.5,102.17,52.99,0.98
Līsakovsk,0,KZ,1602992085,77,52.54,62.49,36.3,5.37
Vizinga,22,RU,1602992086,97,61.07,50.1,29.55,7.09
Brae,76,GB,1602992087,66,60.4,-1.35,41.0,10.29
Shestakovo,100,RU,1602992088,77,56.49,103.96,43.92,8.99
Kathu,75,TH,1602992089,83,7.92,98.33,82.0,12.75
Genç,0,TR,1602992090,44,38.75,40.56,51.89,2.73
Machalí,0,CL,1602992091,75,-34.18,-70.67,57.34,1.68
Pathein,69,MM,1602992092,74,16.78,94.73,84.42,12.77
Qinggang,25,CN,1602992093,55,46.68,126.08,43.21,9.66
Northam,87,GB,1602992095,92,51.03,-4.22,46.99,1.99
Hobyo,11,SO,1602992096,76,5.35,48.53,79.9,14.43
Toora-Khem,97,RU,1602992097,63,52.47,96.11,42.13,3.2
Rome,1,US,1602992098,74,43.21,-75.46,42.01,5.82
Presidencia Roque Sáenz Peña,4,AR,1602992099,93,-26.79,-60.44,70.21,4.59
Akdepe,0,TM,1602992100,27,42.06,59.38,44.6,4.7
Ngunguru,12,NZ,1602992101,60,-35.62,174.5,69.01,7.0
Halifax,7,CA,1602992102,89,44.65,-63.57,45.0,1.99
Beira,75,MZ,1602992019,94,-19.84,34.84,68.0,4.7
Shashi,96,CN,1602992104,50,30.31,112.24,65.05,4.09
Dwārka,68,IN,1602992105,71,22.24,68.97,85.86,12.75
Belaya Gora,97,RU,1602992106,97,68.53,146.42,23.76,12.35
Maceió,11,BR,1602992025,94,-9.67,-35.74,69.8,2.24
Hornepayne,100,CA,1602992108,97,49.21,-84.77,33.39,10.07
Longonjo,0,AO,1602992109,72,-12.91,15.25,64.27,1.34
Mildura,75,AU,1602992095,45,-34.2,142.15,64.0,9.17
Parabel',100,RU,1602992111,90,58.7,81.48,32.04,22.28
Fatehpur,0,IN,1602992113,39,25.93,80.8,86.83,3.4
Malanje,49,AO,1602992114,96,-9.54,16.34,64.2,1.36
Orlik,62,RU,1602992115,75,52.52,99.83,36.73,3.06
Nueva Loja,100,EC,1602992116,97,0.08,-76.88,70.63,2.01
Aykhal,0,RU,1602992117,92,66.0,111.5,12.2,2.24
Ganzhou,100,CN,1602992118,90,28.82,115.43,59.07,2.75
Aktau,0,KZ,1602991828,74,43.65,51.2,37.4,11.18
Carutapera,5,BR,1602992120,85,-1.2,-46.02,76.73,4.97
Anadyr,67,RU,1602992121,80,64.75,177.48,35.6,2.24
Avera,40,US,1602992122,87,33.19,-82.53,54.0,5.82
Ballina,41,AU,1602992123,54,-28.87,153.57,88.0,17.22
Nishihara,20,JP,1602992124,54,26.18,127.76,84.2,12.75
Kulhudhuffushi,99,MV,1602992125,77,6.62,73.07,82.44,14.36
Nabire,100,ID,1602992126,88,-3.37,135.48,79.36,4.88
Novyy Urgal,0,RU,1602992127,71,51.07,132.56,33.08,14.27
Henties Bay,0,NA,1602992129,94,-22.12,14.28,57.0,1.99
Maragogi,5,BR,1602992130,81,-9.01,-35.22,74.17,8.86
Tadine,11,NC,1602992131,57,-21.55,167.88,74.88,9.78
Holetown,40,BB,1602992132,88,13.19,-59.64,77.0,14.99
Quatre Cocos,75,MU,1602992133,83,-20.21,57.76,77.0,2.24
Bahir Dar,34,ET,1602992134,85,11.59,37.39,59.07,3.98
Nhulunbuy,40,AU,1602992135,55,-12.23,136.77,87.8,12.75
Shaoguan,87,CN,1602992136,63,24.8,113.58,72.84,5.99
Alekseyevsk,100,RU,1602992137,91,57.84,108.35,40.06,6.49
Pontes e Lacerda,50,BR,1602992138,85,-15.23,-59.34,73.6,1.95
Arrondissement de Thiers,90,FR,1602992139,87,45.83,3.5,46.4,1.48
Pavlivka,72,UA,1602992140,87,49.44,28.46,44.6,8.95
Berlevåg,99,NO,1602991989,74,70.86,29.09,37.81,11.79
Kloulklubed,90,PW,1602992142,88,7.04,134.26,78.8,3.36
Nicoya,92,CR,1602992143,74,10.15,-85.45,80.6,11.41
Fort Myers Beach,1,US,1602992144,83,26.45,-81.95,77.0,9.17
Nangwa,16,TZ,1602992145,97,-4.47,35.45,54.48,5.75
High Level,90,CA,1602992146,67,58.52,-117.14,23.0,4.7
Dabat,4,ET,1602992147,71,12.98,37.77,52.09,3.96
Port-Gentil,100,GA,1602992149,86,-0.72,8.78,77.56,9.04
Namikupa,13,TZ,1602992150,82,-10.83,39.6,71.33,4.81
Obihiro,20,JP,1602992093,44,42.92,143.2,60.8,4.7
Biograd na Moru,0,HR,1602992152,93,43.94,15.45,46.99,3.36
Glasgow,90,GB,1602992001,93,55.87,-4.26,46.4,4.7
Bilma,0,NE,1602992154,17,18.69,12.92,79.14,5.17
Olafsvik,100,IS,1602992100,83,64.89,-23.71,45.3,25.61
La Libertad,90,EC,1602991890,85,-2.23,-80.9,69.94,7.49
Scarborough,97,GB,1602992149,92,54.28,-0.4,46.99,10.11
Janaúba,100,BR,1602992158,69,-15.8,-43.31,70.43,12.21
Yenagoa,95,NG,1602992159,95,4.92,6.26,72.73,1.32
Darhan,54,MN,1602992160,52,49.49,105.92,46.63,10.07
Shiyan,100,CN,1602992161,53,32.65,110.78,65.16,3.18
Tura,38,IN,1602992162,71,25.52,90.22,85.23,2.1
Shingū,75,JP,1602992163,82,33.73,135.98,64.4,5.82
Port Shepstone,0,ZA,1602992165,64,-30.74,30.45,67.73,7.74
Blagoyevo,100,RU,1602992166,93,63.37,47.92,32.9,8.9
Lixouri,20,GR,1602992167,87,38.2,20.43,55.4,10.18
Abu Samrah,0,SY,1602992168,82,35.3,37.18,56.17,1.32
Cosalá,0,MX,1602992170,89,24.41,-106.69,84.0,1.99
Oliver,75,CA,1602992171,58,49.18,-119.55,48.99,4.7
Zhezkazgan,18,KZ,1602992172,40,47.8,67.71,54.7,9.82
Dogondoutchi,36,NE,1602992173,49,13.64,4.03,83.66,7.11
Petropavlovsk-Kamchatskiy,40,RU,1602992174,70,53.05,158.65,46.4,4.47
Guerrero Negro,21,MX,1602992175,74,27.98,-114.06,72.43,10.13
Menongue,2,AO,1602992176,54,-14.66,17.69,65.32,4.16
Poronaysk,34,RU,1602992177,54,49.22,143.12,54.27,15.86
Port Blair,100,IN,1602992178,80,11.67,92.75,82.22,15.55
Narsaq,41,GL,1602992179,80,60.92,-46.05,35.6,3.69
Lochmaben,100,GB,1602992181,100,55.13,-3.44,46.0,9.17
Los Llanos de Aridane,100,ES,1602992182,88,28.66,-17.92,71.6,10.29
Port Keats,52,AU,1602992183,59,-14.25,129.55,88.32,7.96
Abdulino,78,RU,1602992184,87,53.7,53.67,33.93,6.76
Hargeisa,0,SO,1602992185,49,9.56,44.06,69.4,5.41
Am Timan,30,TD,1602992187,72,11.03,20.28,71.11,2.73
Road Town,17,VG,1602992121,93,18.42,-64.62,80.01,4.0
